City_ID,City,Country,Date,Lat,Lng,Max Temp,Humidity,Cloudiness,Wind Speed,Weather Description
0,Nikolskoye,RU,2021-08-08 22:36:29,59.7035,30.7861,64.29,97,100,4.56,overcast clouds
1,Longyearbyen,SJ,2021-08-08 22:36:29,78.2186,15.6401,40.84,93,75,6.91,broken clouds
2,Bethel,US,2021-08-08 22:36:30,41.3712,-73.414,80.71,73,90,5.75,light rain
3,Shunyi,CN,2021-08-08 22:36:30,40.125,116.6453,69.75,94,20,11.18,light rain
4,Rikitea,PF,2021-08-08 22:36:30,-23.1203,-134.9692,74.52,75,1,12.21,clear sky
5,Khash,IR,2021-08-08 22:36:31,28.2211,61.2158,79.11,14,1,4.25,clear sky
6,Souillac,MU,2021-08-08 22:36:31,-20.5167,57.5167,68.36,100,75,4.61,light rain
7,Bluff,NZ,2021-08-08 22:36:32,-46.6,168.3333,39.79,78,96,14.83,overcast clouds
8,Otukpo,NG,2021-08-08 22:36:32,7.1913,8.1329,71.08,96,97,7.09,light rain
9,Thinadhoo,MV,2021-08-08 22:30:37,0.5333,72.9333,80.04,77,89,3.83,overcast clouds
10,Airai,TL,2021-08-08 22:30:38,-8.9266,125.4092,59.94,74,25,2.13,scattered clouds
11,Tasiilaq,GL,2021-08-08 22:30:38,65.6145,-37.6368,46.56,94,100,19.71,moderate rain
12,Cape Town,ZA,2021-08-08 22:30:39,-33.9258,18.4232,55.11,93,75,1.01,light rain
13,Vaini,TO,2021-08-08 22:30:39,-21.2,-175.2,73.56,78,75,2.3,broken clouds
14,Tra Vinh,VN,2021-08-08 22:30:39,9.9347,106.3453,78.58,91,33,7.58,scattered clouds
15,Ngunguru,NZ,2021-08-08 22:30:40,-35.6167,174.5,48.16,68,99,16.96,moderate rain
16,Talcahuano,CL,2021-08-08 22:30:15,-36.7167,-73.1167,49.68,71,0,8.05,clear sky
17,Ushuaia,AR,2021-08-08 22:30:40,-54.8,-68.3,42.46,61,40,9.22,scattered clouds
18,Castro,BR,2021-08-08 22:30:41,-24.7911,-50.0119,61.74,58,99,4.0,overcast clouds
19,Aklavik,CA,2021-08-08 22:30:41,68.2191,-135.0107,56.12,42,8,4.23,clear sky
20,Khatanga,RU,2021-08-08 22:30:42,71.9667,102.5,52.16,72,100,11.3,light rain
21,Kapaa,US,2021-08-08 22:30:42,22.0752,-159.319,86.32,64,40,3.0,scattered clouds
22,Talnakh,RU,2021-08-08 22:30:43,69.4865,88.3972,60.91,61,1,4.23,clear sky
23,Mackay,AU,2021-08-08 22:30:12,-21.15,149.2,68.04,77,75,11.5,broken clouds
24,Albany,US,2021-08-08 22:30:40,42.6001,-73.9662,84.85,58,22,5.88,few clouds
25,Camacha,PT,2021-08-08 22:30:44,33.0833,-16.3333,67.53,73,40,8.05,scattered clouds
26,Jamestown,US,2021-08-08 22:26:55,42.097,-79.2353,83.52,71,1,3.0,clear sky
27,Puerto Ayora,EC,2021-08-08 22:27:07,-0.7393,-90.3518,75.16,84,52,7.0,broken clouds
28,Hobart,AU,2021-08-08 22:26:51,-42.8794,147.3294,45.1,88,40,3.0,scattered clouds
29,Saint George,US,2021-08-08 22:27:26,37.1041,-113.5841,106.27,11,1,1.99,clear sky
30,Kavieng,PG,2021-08-08 22:27:19,-2.5744,150.7967,82.31,75,99,10.51,light rain
31,Mar Del Plata,AR,2021-08-08 22:30:28,-38.0023,-57.5575,50.02,71,0,9.22,clear sky
32,Vestmannaeyjar,IS,2021-08-08 22:30:45,63.4427,-20.2734,56.3,80,86,8.55,overcast clouds
33,Sarangarh,IN,2021-08-08 22:30:46,21.6,83.0833,79.88,77,78,4.79,broken clouds
34,Cidreira,BR,2021-08-08 22:30:46,-30.1811,-50.2056,60.22,91,1,10.33,clear sky
35,Ornskoldsvik,SE,2021-08-08 22:30:47,63.2909,18.7153,62.42,100,90,9.22,moderate rain
36,Tuktoyaktuk,CA,2021-08-08 22:30:47,69.4541,-133.0374,48.2,76,75,8.05,broken clouds
37,Lompoc,US,2021-08-08 22:30:48,34.6391,-120.4579,82.22,69,1,8.01,clear sky
38,Thompson,CA,2021-08-08 22:28:52,55.7435,-97.8558,69.96,73,40,9.22,smoke
39,Howard Springs,AU,2021-08-08 22:30:48,-12.497,131.047,67.91,78,3,5.91,clear sky
40,Arcata,US,2021-08-08 22:28:23,40.8665,-124.0828,83.68,73,40,1.01,scattered clouds
41,Chokurdakh,RU,2021-08-08 22:30:49,70.6333,147.9167,65.73,43,57,14.41,broken clouds
42,Kruisfontein,ZA,2021-08-08 22:30:49,-34.0033,24.7314,52.88,89,100,6.85,overcast clouds
43,Arlit,NE,2021-08-08 22:30:50,18.7369,7.3853,97.0,24,95,5.08,overcast clouds
44,Bredasdorp,ZA,2021-08-08 22:30:50,-34.5322,20.0403,53.28,87,100,13.8,moderate rain
45,Delcevo,MK,2021-08-08 22:30:51,41.9672,22.7694,66.02,51,0,1.23,clear sky
46,Cabo San Lucas,MX,2021-08-08 22:30:01,22.8909,-109.9124,93.61,70,40,11.5,scattered clouds
47,Blagoyevo,RU,2021-08-08 22:30:51,63.3667,47.9167,51.8,92,100,3.76,moderate rain
48,Galle,LK,2021-08-08 22:30:52,6.0367,80.217,77.85,88,95,9.86,overcast clouds
49,Severo-Kurilsk,RU,2021-08-08 22:30:52,50.6789,156.125,55.6,88,57,11.48,broken clouds
50,Dikson,RU,2021-08-08 22:30:53,73.5069,80.5464,42.42,95,1,6.71,clear sky
51,Saryg-Sep,RU,2021-08-08 22:30:53,51.5,95.6,52.21,90,36,3.11,scattered clouds
52,Araouane,ML,2021-08-08 22:30:54,18.9048,-3.5265,96.85,25,27,15.1,scattered clouds
53,Dunedin,NZ,2021-08-08 22:30:41,-45.8742,170.5036,41.81,72,86,3.0,overcast clouds
54,Tambo,PE,2021-08-08 22:30:54,-14.8,-73.9167,39.74,40,25,6.64,scattered clouds
55,Atuona,PF,2021-08-08 22:30:55,-9.8,-139.0333,77.77,79,23,21.03,light rain
56,Poya,NC,2021-08-08 22:30:55,-21.35,165.15,71.24,48,51,10.42,broken clouds
57,Butaritari,KI,2021-08-08 22:26:45,3.0707,172.7902,83.64,62,56,11.34,broken clouds
58,Timmins,CA,2021-08-08 22:30:13,48.4669,-81.3331,64.22,100,90,9.22,mist
59,Lagoa,PT,2021-08-08 22:30:56,39.05,-27.9833,71.67,87,11,19.44,few clouds
60,Punta Arenas,CL,2021-08-08 22:30:56,-53.15,-70.9167,42.91,70,90,18.41,overcast clouds
61,Hilo,US,2021-08-08 22:30:57,19.7297,-155.09,80.33,65,90,13.8,overcast clouds
62,Lubango,AO,2021-08-08 22:30:57,-14.9172,13.4925,57.79,39,28,3.96,scattered clouds
63,Port Alfred,ZA,2021-08-08 22:30:58,-33.5906,26.891,59.58,83,50,14.52,scattered clouds
64,Veraval,IN,2021-08-08 22:30:58,20.9,70.3667,81.18,78,100,8.5,overcast clouds
65,Barrow,US,2021-08-08 22:26:58,71.2906,-156.7887,39.22,88,90,10.36,overcast clouds
66,Kahului,US,2021-08-08 22:29:35,20.8947,-156.47,87.82,52,20,24.16,few clouds
67,Havoysund,NO,2021-08-08 22:28:29,70.9963,24.6622,67.08,66,52,11.01,broken clouds
68,Lorengau,PG,2021-08-08 22:30:59,-2.0226,147.2712,82.76,76,68,8.9,broken clouds
69,Buraydah,SA,2021-08-08 22:31:00,26.326,43.975,93.65,14,87,9.71,overcast clouds
70,Bridgetown,BB,2021-08-08 22:29:03,13.1,-59.6167,82.89,78,20,18.41,few clouds
71,Katubao,PH,2021-08-08 22:31:00,5.8892,124.8294,80.44,75,100,2.26,light rain
72,Saskylakh,RU,2021-08-08 22:31:01,71.9167,114.0833,60.44,64,100,6.98,overcast clouds
73,Mount Gambier,AU,2021-08-08 22:31:01,-37.8333,140.7667,46.31,93,90,8.05,overcast clouds
74,Sakakah,SA,2021-08-08 22:31:01,29.9697,40.2064,90.97,21,0,9.82,clear sky
75,Inuvik,CA,2021-08-08 22:31:02,68.3499,-133.7218,56.16,54,75,4.61,broken clouds
76,Sibenik,HR,2021-08-08 22:31:02,43.7272,15.9058,83.86,53,44,0.49,scattered clouds
77,Busselton,AU,2021-08-08 22:26:26,-33.65,115.3333,53.1,53,100,22.93,overcast clouds
78,Sulphur Springs,US,2021-08-08 22:31:03,33.1385,-95.6011,95.92,46,40,14.97,scattered clouds
79,Copacabana,CO,2021-08-08 22:26:09,6.3463,-75.5089,73.83,91,77,2.51,broken clouds
80,Ouro Branco,BR,2021-08-08 22:31:04,-20.5208,-43.6919,57.63,77,98,4.09,overcast clouds
81,Kodiak,US,2021-08-08 22:31:05,57.79,-152.4072,63.91,48,40,11.5,scattered clouds
82,Biak,ID,2021-08-08 22:31:05,-0.9131,122.8766,75.45,86,88,5.97,overcast clouds
83,Maniitsoq,GL,2021-08-08 22:31:05,65.4167,-52.9,42.37,81,49,0.51,scattered clouds
84,Piet Retief,ZA,2021-08-08 22:31:06,-27.0071,30.8132,48.18,27,4,5.64,clear sky
85,Ponta Do Sol,PT,2021-08-08 22:26:45,32.6667,-17.1,71.01,74,27,3.4,scattered clouds
86,Provideniya,RU,2021-08-08 22:31:07,64.3833,-173.3,46.51,76,75,11.18,broken clouds
87,Hofn,IS,2021-08-08 22:31:07,64.2539,-15.2082,55.9,76,15,2.19,few clouds
88,Bichura,RU,2021-08-08 22:31:08,50.5881,107.6022,55.45,82,32,3.33,scattered clouds
89,Hermanus,ZA,2021-08-08 22:31:08,-34.4187,19.2345,53.8,86,100,17.4,moderate rain
90,Sorland,NO,2021-08-08 22:31:09,67.667,12.6934,57.4,83,71,13.8,broken clouds
91,Adrar,MR,2021-08-08 22:31:09,20.5022,-10.0711,88.18,18,9,10.6,clear sky
92,Geraldton,AU,2021-08-08 22:31:10,-28.7667,114.6,63.01,82,40,12.66,light rain
93,Port Blair,IN,2021-08-08 22:31:10,11.6667,92.75,81.79,83,100,9.66,overcast clouds
94,Sur,OM,2021-08-08 22:31:10,22.5667,59.5289,86.94,60,10,10.13,clear sky
95,Dingle,PH,2021-08-08 22:31:11,10.9995,122.6711,77.63,89,100,1.7,light rain
96,East London,ZA,2021-08-08 22:30:33,-33.0153,27.9116,63.68,68,37,15.77,scattered clouds
97,Caxias,PT,2021-08-08 22:31:11,38.7031,-9.2767,65.59,74,20,11.99,few clouds
98,Nome,US,2021-08-08 22:27:21,64.5011,-165.4064,59.07,68,90,21.85,overcast clouds
99,Uyuni,BO,2021-08-08 22:31:12,-20.4597,-66.825,46.26,25,5,10.31,clear sky
100,Buin,CL,2021-08-08 22:31:12,-33.7333,-70.75,53.92,85,98,1.45,overcast clouds
101,Adelaide,AU,2021-08-08 22:27:59,-34.9333,138.6,53.42,66,0,1.99,clear sky
102,Ancud,CL,2021-08-08 22:26:25,-41.8697,-73.8203,47.73,77,14,2.59,few clouds
103,Gondar,ET,2021-08-08 22:31:13,12.6,37.4667,55.63,92,92,3.29,overcast clouds
104,Victoria,HK,2021-08-08 22:26:55,22.2855,114.1577,86.05,90,100,8.03,overcast clouds
105,Ahipara,NZ,2021-08-08 22:27:11,-35.1667,173.1667,49.78,76,94,17.36,light rain
106,Sitka,US,2021-08-08 22:28:18,57.0531,-135.33,62.49,72,90,12.66,overcast clouds
107,Bambous Virieux,MU,2021-08-08 22:31:14,-20.3428,57.7575,68.22,100,75,4.61,light rain
108,Hamilton,US,2021-08-08 22:31:15,39.1834,-84.5333,90.64,57,1,1.99,clear sky
109,Bilma,NE,2021-08-08 22:31:15,18.6853,12.9164,94.55,28,30,4.92,scattered clouds
110,Qaqortoq,GL,2021-08-08 22:27:10,60.7167,-46.0333,50.5,81,8,16.22,clear sky
111,El Carmen,CO,2021-08-08 22:31:16,8.5106,-73.4478,70.39,94,94,3.78,overcast clouds
112,Chuy,UY,2021-08-08 22:31:16,-33.6971,-53.4616,57.34,96,100,11.7,light rain
113,Duayaw Nkwanta,GH,2021-08-08 22:31:16,7.1724,-2.1028,70.81,97,99,4.59,overcast clouds
114,Port Hardy,CA,2021-08-08 22:26:52,50.6996,-127.4199,62.78,77,90,9.22,overcast clouds
115,Iqaluit,CA,2021-08-08 22:31:17,63.7506,-68.5145,42.53,93,90,5.75,light rain
116,Vallenar,CL,2021-08-08 22:31:18,-28.5708,-70.7581,53.02,57,0,3.49,clear sky
117,Batticaloa,LK,2021-08-08 22:31:18,7.7102,81.6924,78.67,81,100,3.0,overcast clouds
118,Hobyo,SO,2021-08-08 22:27:35,5.3505,48.5268,76.39,87,54,24.56,broken clouds
119,Hanting,CN,2021-08-08 22:31:19,36.7708,119.2108,75.96,63,100,1.07,light rain
120,Cabedelo,BR,2021-08-08 22:31:19,-6.9811,-34.8339,77.67,84,35,13.06,scattered clouds
121,Tay Ninh,VN,2021-08-08 22:31:20,11.3,106.1,78.28,92,77,5.26,broken clouds
122,Rena,NO,2021-08-08 22:31:20,61.1348,11.3641,52.83,90,56,1.36,broken clouds
123,Saint-Joseph,RE,2021-08-08 22:31:21,-21.3667,55.6167,66.56,80,15,4.97,few clouds
124,Kabanjahe,ID,2021-08-08 22:31:21,3.1001,98.4908,65.16,94,92,1.48,overcast clouds
125,Henties Bay,NA,2021-08-08 22:31:21,-22.116,14.2845,52.86,92,38,5.82,scattered clouds
126,Luderitz,NA,2021-08-08 22:31:22,-26.6481,15.1594,54.86,86,81,7.56,broken clouds
127,Hillsborough,US,2021-08-08 22:31:22,37.5741,-122.3794,94.98,68,20,12.66,few clouds
128,Nikolayevsk-Na-Amure,RU,2021-08-08 22:31:23,53.1406,140.73,59.77,59,52,3.44,broken clouds
129,Petropavlovsk-Kamchatskiy,RU,2021-08-08 22:31:23,53.0452,158.6483,59.59,72,75,2.24,broken clouds
130,Torbay,CA,2021-08-08 22:31:24,47.6666,-52.7314,56.75,91,90,18.41,light rain
131,Port Lincoln,AU,2021-08-08 22:26:36,-34.7333,135.8667,54.16,56,27,15.73,scattered clouds
132,Puri,IN,2021-08-08 22:31:25,19.8,85.85,82.92,80,100,17.65,overcast clouds
133,Marawi,PH,2021-08-08 22:31:25,7.9986,124.2928,66.65,92,100,1.68,overcast clouds
134,Istisu,AZ,2021-08-08 22:31:26,40.9457,48.0738,77.5,36,81,5.03,broken clouds
135,Cap Malheureux,MU,2021-08-08 22:31:26,-19.9842,57.6142,68.47,89,89,3.0,light rain
136,Mataura,NZ,2021-08-08 22:31:27,-46.1927,168.8643,39.47,92,89,5.37,overcast clouds
137,Manturovo,RU,2021-08-08 22:31:27,58.3353,44.7619,65.25,79,100,4.85,moderate rain
138,Chapais,CA,2021-08-08 22:31:28,49.7834,-74.8492,71.38,46,95,6.26,overcast clouds
139,Haines Junction,CA,2021-08-08 22:31:28,60.7522,-137.5108,62.55,51,100,2.3,overcast clouds
140,Salalah,OM,2021-08-08 22:31:29,17.0151,54.0924,77.09,100,90,2.3,light intensity drizzle
141,Samarai,PG,2021-08-08 22:27:47,-10.6167,150.6667,77.95,76,98,13.94,overcast clouds
142,Carnarvon,AU,2021-08-08 22:26:35,-24.8667,113.6333,66.27,85,90,8.05,overcast clouds
143,Humaita,BR,2021-08-08 22:31:30,-7.5061,-63.0208,88.63,32,70,1.48,broken clouds
144,Vostok,RU,2021-08-08 22:31:30,46.4856,135.8833,54.45,84,100,5.03,overcast clouds
145,Tigil,RU,2021-08-08 22:31:31,57.8,158.6667,58.93,56,23,11.16,few clouds
146,Arraial Do Cabo,BR,2021-08-08 22:31:31,-22.9661,-42.0278,69.55,82,9,25.52,clear sky
147,New Norfolk,AU,2021-08-08 22:26:42,-42.7826,147.0587,44.74,83,28,2.84,scattered clouds
148,Qaanaaq,GL,2021-08-08 22:31:32,77.484,-69.3632,40.14,73,19,3.18,few clouds
149,Evanston,US,2021-08-08 22:26:43,42.0411,-87.6901,91.4,58,40,5.01,scattered clouds
150,Kupang,ID,2021-08-08 22:31:32,-10.1667,123.5833,72.18,83,20,5.75,few clouds
151,Lerwick,GB,2021-08-08 22:27:34,60.1545,-1.1494,57.2,94,100,9.42,overcast clouds
152,Agua Verde,MX,2021-08-08 22:31:33,22.9,-106.05,92.12,67,17,10.74,few clouds
153,Mindelo,CV,2021-08-08 22:31:33,16.8901,-24.9804,80.15,78,75,3.44,broken clouds
154,Belogorsk,RU,2021-08-08 22:31:34,50.9158,128.4611,54.68,83,100,6.98,overcast clouds
155,Ilulissat,GL,2021-08-08 22:31:34,69.2167,-51.1,44.62,81,20,6.91,few clouds
156,Yellowknife,CA,2021-08-08 22:31:35,62.456,-114.3525,55.92,50,75,9.22,broken clouds
157,Moussoro,TD,2021-08-08 22:31:35,13.6408,16.4901,77.77,68,68,11.07,broken clouds
158,Constitucion,CL,2021-08-08 22:28:16,-35.3333,-72.4167,49.32,69,100,2.68,overcast clouds
159,Takoradi,GH,2021-08-08 22:31:36,4.8845,-1.7554,75.7,88,72,9.37,broken clouds
160,Kasukabe,JP,2021-08-08 22:31:36,35.9764,139.7536,86.04,65,97,8.88,light rain
161,Novopskov,UA,2021-08-08 22:31:36,49.5464,39.0899,73.85,66,89,1.52,overcast clouds
162,Tateyama,JP,2021-08-08 22:31:37,34.9833,139.8667,86.02,89,79,25.59,broken clouds
163,Upernavik,GL,2021-08-08 22:26:56,72.7868,-56.1549,41.14,86,100,4.16,overcast clouds
164,Cape Coast,GH,2021-08-08 22:31:38,5.1053,-1.2466,75.09,92,81,10.42,broken clouds
165,Shenjiamen,CN,2021-08-08 22:31:38,29.9576,122.298,79.12,80,62,5.08,broken clouds
166,Trincomalee,LK,2021-08-08 22:31:38,8.5711,81.2335,80.35,77,99,19.28,overcast clouds
167,San Cristobal,VE,2021-08-08 22:31:39,7.7669,-72.225,75.38,97,92,1.99,overcast clouds
168,Thiruvananthapuram,IN,2021-08-08 22:30:06,8.4833,76.9167,78.78,94,75,8.05,mist
169,Svetlogorsk,BY,2021-08-08 22:31:39,52.6333,29.7333,68.29,60,55,5.12,broken clouds
170,Whitehorse,CA,2021-08-08 22:30:14,60.7161,-135.0538,69.03,45,75,19.57,broken clouds
171,Yar-Sale,RU,2021-08-08 22:27:28,66.8333,70.8333,53.65,57,100,16.4,overcast clouds
172,Turukhansk,RU,2021-08-08 22:31:40,65.8167,87.9833,56.03,62,21,6.15,few clouds
173,Ulladulla,AU,2021-08-08 22:31:41,-35.35,150.4667,49.1,63,99,4.41,overcast clouds
174,Namatanai,PG,2021-08-08 22:31:41,-3.6667,152.4333,82.22,72,63,7.09,broken clouds
175,Kosmynino,RU,2021-08-08 22:31:42,57.5818,40.7643,62.08,82,55,4.07,broken clouds
176,Morgan City,US,2021-08-08 22:31:42,29.6994,-91.2068,91.0,70,20,10.36,few clouds
177,Lukulu,ZM,2021-08-08 22:31:43,-14.3707,23.242,60.13,30,0,6.91,clear sky
178,Odweyne,SO,2021-08-08 22:31:43,9.4092,45.064,77.18,47,66,12.06,broken clouds
179,Analipsis,GR,2021-08-08 22:31:44,35.3167,25.5667,82.94,56,0,11.77,clear sky
180,Asahikawa,JP,2021-08-08 22:31:44,43.7678,142.3703,65.41,82,75,5.75,broken clouds
181,Nchelenge,ZM,2021-08-08 22:31:44,-9.3451,28.734,65.53,45,0,4.7,clear sky
182,Katsuura,JP,2021-08-08 22:31:45,35.1333,140.3,86.11,86,85,24.74,overcast clouds
183,Raudeberg,NO,2021-08-08 22:31:45,61.9875,5.1352,58.19,78,7,4.07,clear sky
184,Namibe,AO,2021-08-08 22:31:46,-15.1961,12.1522,63.34,81,44,6.08,scattered clouds
185,Touros,BR,2021-08-08 22:31:46,-5.1989,-35.4608,77.9,81,35,15.79,scattered clouds
186,Sao Filipe,CV,2021-08-08 22:31:47,14.8961,-24.4956,79.02,85,28,3.53,scattered clouds
187,Pawa,PH,2021-08-08 22:31:47,13.1747,123.7328,80.76,84,94,3.15,overcast clouds
188,Ust-Kan,RU,2021-08-08 22:31:47,50.9276,84.761,52.21,81,85,3.58,overcast clouds
189,Grasse,FR,2021-08-08 22:31:48,43.6667,6.9167,68.2,37,0,2.3,clear sky
190,Port Hedland,AU,2021-08-08 22:31:48,-20.3167,118.5667,55.45,67,6,1.14,clear sky
191,Srednekolymsk,RU,2021-08-08 22:31:49,67.45,153.6833,66.65,42,15,4.81,few clouds
192,Huarmey,PE,2021-08-08 22:31:49,-10.0681,-78.1522,64.72,80,7,12.57,clear sky
193,Along,IN,2021-08-08 22:31:50,28.1667,94.7667,76.35,99,98,0.85,overcast clouds
194,Kaitangata,NZ,2021-08-08 22:31:50,-46.2817,169.8464,41.56,80,90,10.49,overcast clouds
195,Ribeira Grande,PT,2021-08-08 22:31:51,38.5167,-28.7,72.77,87,60,15.59,broken clouds
196,Faanui,PF,2021-08-08 22:31:51,-16.4833,-151.75,78.96,77,20,12.91,few clouds
197,Bandarbeyla,SO,2021-08-08 22:31:51,9.4942,50.8122,76.33,83,61,27.07,broken clouds
198,Tuatapere,NZ,2021-08-08 22:31:52,-46.1333,167.6833,39.81,93,98,4.9,overcast clouds
199,Lebu,CL,2021-08-08 22:31:52,-37.6167,-73.65,44.82,82,5,5.86,clear sky
200,Stepnoye,RU,2021-08-08 22:31:53,51.4,46.8667,76.68,34,97,9.84,overcast clouds
201,Klaksvik,FO,2021-08-08 22:27:41,62.2266,-6.589,50.92,94,95,6.11,overcast clouds
202,Artigas,UY,2021-08-08 22:31:53,-30.4,-56.4667,70.41,65,32,8.37,scattered clouds
203,Kisangani,CD,2021-08-08 22:31:54,0.5167,25.2,70.7,78,24,0.56,few clouds
204,Preobrazheniye,RU,2021-08-08 22:26:58,42.9019,133.9064,66.18,76,100,14.45,overcast clouds
205,Moree,AU,2021-08-08 22:31:54,-29.4667,149.85,50.02,87,75,9.22,broken clouds
206,Pisco,PE,2021-08-08 22:31:55,-13.7,-76.2167,64.45,72,40,16.11,scattered clouds
207,Husavik,IS,2021-08-08 22:31:55,66.0449,-17.3389,53.51,86,38,2.35,scattered clouds
208,Yulara,AU,2021-08-08 22:31:56,-25.2406,130.9889,37.24,56,0,5.75,clear sky
209,Plymouth,US,2021-08-08 22:31:56,41.8334,-70.8328,80.62,79,1,4.61,clear sky
210,Hailar,CN,2021-08-08 22:31:56,49.2,119.7,63.0,90,100,8.01,overcast clouds
211,Olds,CA,2021-08-08 22:29:15,51.7834,-114.102,64.63,45,96,9.22,overcast clouds
212,Hithadhoo,MV,2021-08-08 22:31:57,-0.6,73.0833,79.81,77,99,3.38,overcast clouds
213,Alofi,NU,2021-08-08 22:31:57,-19.0595,-169.9187,76.89,88,100,9.22,light rain
214,Gotsu,JP,2021-08-08 22:31:58,35.0,132.2167,75.85,97,100,40.06,overcast clouds
215,Itoman,JP,2021-08-08 22:31:58,26.1247,127.6694,80.98,96,75,11.5,broken clouds
216,Aromashevo,RU,2021-08-08 22:31:59,56.8602,68.6375,60.08,96,47,8.1,scattered clouds
217,Beloha,MG,2021-08-08 22:27:37,-25.1667,45.05,61.27,90,0,5.73,clear sky
218,Labrea,BR,2021-08-08 22:32:00,-7.2586,-64.7981,83.68,36,23,1.81,few clouds
219,Siena,IT,2021-08-08 22:32:00,43.2167,11.4,73.96,70,5,2.01,clear sky
220,Naze,JP,2021-08-08 22:32:00,28.3667,129.4833,79.72,82,7,11.59,clear sky
221,Baykit,RU,2021-08-08 22:32:01,61.67,96.37,57.85,88,98,1.63,light rain
222,Champerico,GT,2021-08-08 22:32:02,14.3,-91.9167,83.35,80,94,3.91,overcast clouds
223,Urumqi,CN,2021-08-08 22:27:32,43.801,87.6005,74.35,33,0,6.71,clear sky
224,Rolla,US,2021-08-08 22:32:02,37.9514,-91.7713,74.93,89,20,7.0,moderate rain
225,Westport,US,2021-08-08 22:32:03,41.1415,-73.3579,80.29,88,90,0.0,overcast clouds
226,Bellevue,US,2021-08-08 22:28:14,47.6104,-122.2007,75.88,51,75,4.0,broken clouds
227,Puerto Plata,DO,2021-08-08 22:32:03,19.7934,-70.6884,87.64,70,40,11.5,scattered clouds
228,Pevek,RU,2021-08-08 22:32:04,69.7008,170.3133,37.94,79,19,11.61,few clouds
229,Bathsheba,BB,2021-08-08 22:32:04,13.2167,-59.5167,83.01,78,20,18.41,few clouds
230,Ostrovnoy,RU,2021-08-08 22:32:04,68.0531,39.5131,49.42,78,0,7.63,clear sky
231,Minsk,BY,2021-08-08 22:32:05,53.9,27.5667,67.75,96,45,4.97,scattered clouds
232,Saint-Philippe,RE,2021-08-08 22:32:05,-21.3585,55.7679,67.55,85,32,9.53,scattered clouds
233,Kozhva,RU,2021-08-08 22:32:06,65.1073,57.0459,46.67,98,85,6.6,overcast clouds
234,Georgetown,MY,2021-08-08 22:32:06,5.4112,100.3354,82.89,84,20,5.75,few clouds
235,Am Timan,TD,2021-08-08 22:32:07,11.0297,20.2827,68.76,93,93,1.05,overcast clouds
236,Bengkulu,ID,2021-08-08 22:32:07,-3.8004,102.2655,75.88,87,55,3.51,broken clouds
237,Baijiantan,CN,2021-08-08 22:32:08,45.6333,85.1833,78.46,27,21,3.58,few clouds
238,Puro,PH,2021-08-08 22:32:08,12.4841,123.3827,81.43,81,100,4.38,overcast clouds
239,Gidole,ET,2021-08-08 22:32:08,5.65,37.3667,60.62,63,99,2.48,overcast clouds
240,Oktyabrskoye,RU,2021-08-08 22:32:09,43.0645,44.7417,68.14,94,11,2.24,few clouds
241,Guerrero Negro,MX,2021-08-08 22:32:09,27.9769,-114.0611,78.78,60,5,15.37,clear sky
242,Alyangula,AU,2021-08-08 22:32:10,-13.8483,136.4192,66.07,94,40,0.0,scattered clouds
243,Winnemucca,US,2021-08-08 22:27:11,40.973,-117.7357,91.45,11,90,13.8,haze
244,Placerville,US,2021-08-08 22:32:11,38.7296,-120.7986,97.54,20,1,8.05,clear sky
245,Orotukan,RU,2021-08-08 22:32:11,62.2667,151.7,57.7,61,68,4.43,broken clouds
246,Atar,MR,2021-08-08 22:32:11,20.5169,-13.0499,94.8,27,7,3.33,clear sky
247,Omboue,GA,2021-08-08 22:32:12,-1.5746,9.2618,73.08,87,56,7.25,broken clouds
248,Hukuntsi,BW,2021-08-08 22:32:12,-24.0,21.75,59.54,22,1,11.1,clear sky
249,Norman Wells,CA,2021-08-08 22:32:13,65.282,-126.8329,55.44,62,75,12.66,broken clouds
250,Bagua Grande,PE,2021-08-08 22:32:13,-5.7561,-78.4411,86.04,47,27,5.21,scattered clouds
251,Atambua,ID,2021-08-08 22:32:13,-9.1061,124.8925,71.44,76,9,3.62,clear sky
252,Batagay,RU,2021-08-08 22:32:14,67.6333,134.6333,75.22,32,16,2.06,few clouds
253,Bilibino,RU,2021-08-08 22:32:14,68.0546,166.4372,58.89,34,81,1.5,broken clouds
254,Ishigaki,JP,2021-08-08 22:32:15,24.3448,124.1572,80.73,100,75,2.3,broken clouds
255,Cabatuan,PH,2021-08-08 22:32:15,10.8794,122.486,79.0,84,99,1.63,light rain
256,Jacareacanga,BR,2021-08-08 22:32:16,-6.2222,-57.7528,85.17,35,40,1.57,scattered clouds
257,Saldanha,ZA,2021-08-08 22:32:16,-33.0117,17.9442,55.45,89,100,19.77,light rain
258,Algeciras,ES,2021-08-08 22:32:17,36.1333,-5.4505,74.88,50,0,8.05,clear sky
259,Sola,VU,2021-08-08 22:32:17,-13.8833,167.55,74.07,94,90,0.0,moderate rain
260,Rorvik,NO,2021-08-08 22:32:18,64.8621,11.2373,57.42,85,80,10.71,broken clouds
261,Ust-Nera,RU,2021-08-08 22:28:28,64.5667,143.2,68.36,45,6,4.27,clear sky
262,Kargasok,RU,2021-08-08 22:32:18,59.0556,80.8572,65.03,67,97,4.79,overcast clouds
263,Avarua,CK,2021-08-08 22:32:19,-21.2078,-159.775,77.05,69,90,8.05,overcast clouds
264,Tala,EG,2021-08-08 22:32:19,30.6803,30.9429,73.94,87,0,4.81,clear sky
265,Mulege,MX,2021-08-08 22:32:20,26.8833,-111.9833,91.94,52,24,10.47,few clouds
266,Coahuayana,MX,2021-08-08 22:32:20,18.7333,-103.6833,89.08,71,51,8.66,broken clouds
267,Patterson,US,2021-08-08 22:30:40,37.4716,-121.1297,102.78,10,0,3.85,clear sky
268,Aljezur,PT,2021-08-08 22:32:21,37.3191,-8.8033,61.36,88,0,13.76,clear sky
269,Chengzihe,CN,2021-08-08 22:32:21,45.3333,131.0667,59.41,79,76,3.36,broken clouds
270,Waipawa,NZ,2021-08-08 22:32:22,-41.4122,175.5153,43.43,65,94,21.21,overcast clouds
271,Oxbow,CA,2021-08-08 22:32:22,49.2333,-102.1676,90.64,32,2,17.74,clear sky
272,Arrecife,ES,2021-08-08 22:29:50,28.963,-13.5477,71.67,73,20,14.97,few clouds
273,Fairbanks,US,2021-08-08 22:30:00,64.8378,-147.7164,66.16,77,90,4.61,light rain
274,Soyo,AO,2021-08-08 22:28:00,-6.1349,12.3689,72.55,83,8,6.53,clear sky
275,Mount Isa,AU,2021-08-08 22:31:05,-20.7333,139.5,62.37,31,0,2.3,clear sky
276,Svetlyy,RU,2021-08-08 22:32:24,54.675,20.1347,59.05,82,38,7.63,scattered clouds
277,Itaituba,BR,2021-08-08 22:32:24,-4.2761,-55.9836,84.36,40,51,0.98,broken clouds
278,Urusha,RU,2021-08-08 22:32:25,54.05,122.9,51.6,91,100,8.75,overcast clouds
279,Golden,US,2021-08-08 22:30:02,39.7555,-105.2211,94.24,22,20,1.99,smoke
280,Mahibadhoo,MV,2021-08-08 22:32:26,3.7833,72.9667,82.76,74,100,14.7,overcast clouds
281,Port Elizabeth,ZA,2021-08-08 22:32:26,-33.918,25.5701,57.49,88,0,9.22,clear sky
282,Mahebourg,MU,2021-08-08 22:27:35,-20.4081,57.7,68.25,100,75,4.61,light rain
283,Malindi,KE,2021-08-08 22:32:27,-3.2175,40.1191,73.81,84,34,11.63,scattered clouds
284,Goderich,CA,2021-08-08 22:31:28,43.7501,-81.7165,80.92,69,100,12.66,overcast clouds
285,Bonavista,CA,2021-08-08 22:27:53,48.6499,-53.1147,56.12,78,82,18.14,broken clouds
286,Baruun-Urt,MN,2021-08-08 22:32:28,46.6806,113.2792,58.28,84,66,7.02,broken clouds
287,Mattru,SL,2021-08-08 22:32:28,7.6244,-11.8332,74.17,87,100,3.11,overcast clouds
288,Clyde River,CA,2021-08-08 22:27:30,70.4692,-68.5914,44.83,81,75,12.66,broken clouds
289,Cockburn Town,TC,2021-08-08 22:32:29,21.4612,-71.1419,85.96,66,40,13.8,scattered clouds
290,Ridgecrest,US,2021-08-08 22:32:01,35.6225,-117.6709,107.65,5,1,8.99,clear sky
291,Tarbagatay,RU,2021-08-08 22:32:30,51.4803,107.3602,49.53,72,63,2.95,broken clouds
292,Margate,GB,2021-08-08 22:32:30,51.3813,1.3862,59.92,83,44,1.01,scattered clouds
293,Tual,ID,2021-08-08 22:32:30,-5.6667,132.75,80.2,79,100,18.23,overcast clouds
294,Te Anau,NZ,2021-08-08 22:32:31,-45.4167,167.7167,37.02,88,75,1.52,broken clouds
295,Dudinka,RU,2021-08-08 22:32:31,69.4058,86.1778,57.85,70,3,15.43,clear sky
296,Bubaque,GW,2021-08-08 22:32:32,11.2833,-15.8333,78.03,84,100,10.11,moderate rain
297,Hualmay,PE,2021-08-08 22:32:32,-11.0964,-77.6139,63.28,80,40,13.47,scattered clouds
298,Agadez,NE,2021-08-08 22:32:33,19.75,10.25,91.35,28,82,7.54,broken clouds
299,Necochea,AR,2021-08-08 22:32:33,-38.5473,-58.7368,46.71,65,100,5.08,overcast clouds
300,Mutis,CO,2021-08-08 22:32:34,6.2262,-77.4044,79.41,82,77,4.88,broken clouds
301,Vao,NC,2021-08-08 22:32:34,-22.6667,167.4833,67.84,61,35,16.44,scattered clouds
302,Port-Gentil,GA,2021-08-08 22:32:35,-0.7193,8.7815,76.96,83,75,6.91,broken clouds
303,Weihai,CN,2021-08-08 22:32:35,37.5017,122.1136,77.05,79,65,5.1,light rain
304,Tineo,ES,2021-08-08 22:32:36,43.3376,-6.4145,55.65,97,98,2.08,overcast clouds
305,Port Macquarie,AU,2021-08-08 22:32:36,-31.4333,152.9167,51.76,66,100,4.72,overcast clouds
306,Richards Bay,ZA,2021-08-08 22:32:37,-28.783,32.0377,66.16,58,1,12.3,clear sky
307,Leningradskiy,RU,2021-08-08 22:29:14,69.3833,178.4167,40.44,75,26,18.07,scattered clouds
308,Broken Hill,AU,2021-08-08 22:32:38,-31.95,141.4333,46.11,71,0,9.22,clear sky
309,Emerald,AU,2021-08-08 22:29:09,-23.5333,148.1667,55.54,44,0,6.91,clear sky
310,Lenger,KZ,2021-08-08 22:32:38,42.183,69.8839,72.84,21,0,6.24,clear sky
311,Nishihara,JP,2021-08-08 22:32:39,26.1842,127.7558,80.26,97,75,8.05,broken clouds
312,Mount Pleasant,US,2021-08-08 22:28:08,32.7941,-79.8626,86.14,84,40,3.0,scattered clouds
313,Nanortalik,GL,2021-08-08 22:32:39,60.1432,-45.2371,43.23,90,34,12.62,scattered clouds
314,Beyla,GN,2021-08-08 22:32:40,8.6833,-8.6333,68.13,99,100,3.29,moderate rain
315,Juneau,US,2021-08-08 22:28:43,58.3019,-134.4197,62.6,78,75,10.36,broken clouds
316,Kota Kinabalu,MY,2021-08-08 22:32:40,5.9749,116.0724,76.98,88,40,5.75,scattered clouds
317,Pafos,CY,2021-08-08 22:30:17,34.7667,32.4167,80.51,65,0,4.61,clear sky
318,Cangzhou,CN,2021-08-08 22:32:41,38.3167,116.8667,76.12,84,78,3.6,light rain
319,Bereda,ES,2021-08-08 22:32:42,43.2686,-7.5406,58.75,98,72,2.04,broken clouds
320,Otradnoye,RU,2021-08-08 22:32:42,59.7775,30.8181,64.18,96,99,4.54,overcast clouds
321,La Union,PE,2021-08-08 22:32:43,-5.4,-80.75,73.06,52,4,19.1,clear sky
322,Hasaki,JP,2021-08-08 22:32:43,35.7333,140.8333,84.6,79,64,21.72,broken clouds
323,Camabatela,AO,2021-08-08 22:32:44,-8.1881,15.375,60.48,80,28,4.05,scattered clouds
324,Mahina,PF,2021-08-08 22:32:44,-17.5065,-149.489,83.97,65,20,4.61,few clouds
325,Mapimi,MX,2021-08-08 22:32:45,25.8167,-103.85,92.17,24,1,8.7,clear sky
326,College,US,2021-08-08 22:32:45,64.8569,-147.8028,66.15,76,75,5.75,broken clouds
327,Alcantara,BR,2021-08-08 22:32:46,-2.4089,-44.4147,82.6,81,14,7.83,few clouds
328,Kulunda,RU,2021-08-08 22:32:46,52.566,78.9385,60.67,96,75,7.81,broken clouds
329,Esperance,AU,2021-08-08 22:28:58,-33.8667,121.9,58.84,76,1,21.36,clear sky
330,Sisimiut,GL,2021-08-08 22:27:58,66.9395,-53.6735,43.38,80,97,3.89,overcast clouds
331,Kargat,RU,2021-08-08 22:32:47,55.1956,80.2811,60.33,97,100,6.38,light rain
332,Padang,ID,2021-08-08 22:32:47,-0.9492,100.3543,77.67,86,83,3.24,moderate rain
333,Dickinson,US,2021-08-08 22:32:48,29.4608,-95.0513,94.1,67,75,5.01,broken clouds
334,Nantucket,US,2021-08-08 22:30:32,41.2835,-70.0995,79.25,77,1,5.75,clear sky
335,Paramonga,PE,2021-08-08 22:32:48,-10.6667,-77.8333,63.3,82,41,12.73,scattered clouds
336,Dunda,TZ,2021-08-08 22:32:49,-8.1167,34.25,60.04,55,2,4.16,clear sky
337,Taoudenni,ML,2021-08-08 22:32:49,22.6783,-3.9836,101.7,9,10,13.13,clear sky
338,Leavenworth,US,2021-08-08 22:32:50,39.2333,-95.0336,89.71,71,69,10.07,broken clouds
339,Griffith,US,2021-08-08 22:32:50,41.5284,-87.4237,89.71,65,40,1.01,scattered clouds
340,Marzuq,YE,2021-08-08 22:32:51,14.4,46.4667,86.97,26,91,2.01,overcast clouds
341,Sosnovo-Ozerskoye,RU,2021-08-08 22:32:51,52.5249,111.5418,51.51,90,26,4.54,scattered clouds
342,Seddon,AU,2021-08-08 22:32:52,-37.8068,144.8916,52.75,84,90,1.01,overcast clouds
343,Narsaq,GL,2021-08-08 22:32:52,60.9167,-46.05,50.22,74,9,7.54,clear sky
344,Flinders,AU,2021-08-08 22:32:52,-34.5833,150.8552,51.19,87,100,7.83,overcast clouds
345,Innisfail,AU,2021-08-08 22:32:53,-17.5333,146.0333,70.16,86,86,9.1,overcast clouds
346,Beringovskiy,RU,2021-08-08 22:32:53,63.05,179.3167,43.72,85,100,21.36,light rain
347,Carahue,CL,2021-08-08 22:32:54,-38.7,-73.1667,52.0,89,4,0.69,clear sky
348,Misratah,LY,2021-08-08 22:32:54,32.3754,15.0925,80.98,72,0,12.35,clear sky
349,Nueve De Julio,AR,2021-08-08 22:32:54,-35.4444,-60.8831,43.25,91,100,16.06,light rain
350,Mastung,PK,2021-08-08 22:32:55,29.7994,66.845,72.59,57,0,5.21,clear sky
351,Ajdabiya,LY,2021-08-08 22:32:55,30.7554,20.2263,83.32,30,0,10.6,clear sky
352,Sao Joao Da Barra,BR,2021-08-08 22:32:52,-21.6403,-41.0511,69.62,80,24,13.76,few clouds
353,Topolobampo,MX,2021-08-08 22:32:56,25.6,-109.05,95.11,49,75,3.44,broken clouds
354,Shirokiy,RU,2021-08-08 22:32:56,49.758,129.523,55.63,82,100,8.1,overcast clouds
355,Kemijarvi,FI,2021-08-08 22:32:57,66.7131,27.4306,55.8,78,100,10.27,overcast clouds
356,Nakusp,CA,2021-08-08 22:32:57,50.2499,-117.8023,59.47,94,100,3.44,moderate rain
357,Tazovskiy,RU,2021-08-08 22:32:57,67.4667,78.7,50.59,72,1,10.04,clear sky
358,Walvis Bay,NA,2021-08-08 22:32:58,-22.9575,14.5053,53.1,87,47,2.3,scattered clouds
359,Majene,ID,2021-08-08 22:32:58,-3.5403,118.9707,76.17,90,41,6.6,scattered clouds
360,Radaur,IN,2021-08-08 22:32:59,30.0333,77.15,78.89,89,72,5.23,broken clouds
361,Middelburg,ZA,2021-08-08 22:32:59,-25.7751,29.4648,53.19,41,0,3.11,clear sky
362,Key West,US,2021-08-08 22:33:00,24.5557,-81.7826,90.0,66,1,8.05,clear sky
363,Rabo De Peixe,PT,2021-08-08 22:33:00,37.8,-25.5833,71.11,88,75,13.8,broken clouds
364,Luang Prabang,LA,2021-08-08 22:33:00,19.8856,102.1347,74.7,94,100,1.16,overcast clouds
365,Cherskiy,RU,2021-08-08 22:33:01,68.75,161.3,60.19,33,36,1.39,scattered clouds
366,Antsohihy,MG,2021-08-08 22:33:01,-14.8796,47.9875,66.16,91,0,1.68,clear sky
367,Byron Bay,AU,2021-08-08 22:33:02,-28.65,153.6167,61.05,64,100,8.9,overcast clouds
368,Isangel,VU,2021-08-08 22:33:02,-19.55,169.2667,73.51,68,75,6.91,broken clouds
369,Tara,RU,2021-08-08 22:33:03,56.8944,74.371,59.86,94,65,6.11,broken clouds
370,Birzai,LT,2021-08-08 22:33:03,56.2,24.75,57.87,98,47,6.69,scattered clouds
371,Lakes Entrance,AU,2021-08-08 22:33:04,-37.8811,147.981,50.23,63,5,4.34,clear sky
372,Mahanoro,MG,2021-08-08 22:33:04,-19.9,48.8,63.73,91,7,4.79,clear sky
373,Santa Rosalia,MX,2021-08-08 22:33:05,27.3167,-112.2833,88.41,55,9,6.71,clear sky
374,Kirakira,SB,2021-08-08 22:33:05,-10.4544,161.9205,81.46,77,47,5.82,scattered clouds
375,Morro Bay,US,2021-08-08 22:33:06,35.3658,-120.8499,93.94,55,25,8.01,scattered clouds
376,Imeni Poliny Osipenko,RU,2021-08-08 22:33:06,52.4201,136.4853,54.05,77,100,4.79,overcast clouds
377,Miravci,MK,2021-08-08 22:33:06,41.3078,22.435,75.94,76,0,2.75,clear sky
378,Anloga,GH,2021-08-08 22:33:07,5.7947,0.8973,77.22,90,84,15.28,broken clouds
379,Asau,RO,2021-08-08 22:33:07,46.4333,26.4,61.72,67,2,2.95,light rain
380,Norden,DE,2021-08-08 22:33:08,53.6,7.2,60.94,88,76,22.77,heavy intensity rain
381,Bulgan,MN,2021-08-08 22:33:08,48.8125,103.5347,51.6,79,55,1.34,broken clouds
382,Tando Jam,PK,2021-08-08 22:33:09,25.4272,68.5362,80.42,72,0,17.67,clear sky
383,Galesong,ID,2021-08-08 22:33:04,-5.3166,119.3661,71.62,77,29,4.7,scattered clouds
384,Rio Grande,BR,2021-08-08 22:33:00,-32.035,-52.0986,61.77,83,94,8.28,overcast clouds
385,Paamiut,GL,2021-08-08 22:33:09,61.994,-49.6678,43.39,88,99,3.53,overcast clouds
386,Tilichiki,RU,2021-08-08 22:33:10,60.4667,166.1,58.89,48,91,13.56,overcast clouds
387,Sloboda,RU,2021-08-08 22:33:10,51.1421,40.3021,80.62,22,100,13.49,overcast clouds
388,Egvekinot,RU,2021-08-08 22:33:11,66.3167,-179.1667,47.98,51,77,13.98,broken clouds
389,Khromtau,KZ,2021-08-08 22:33:11,50.2503,58.4347,61.03,58,0,7.63,clear sky
390,Kununurra,AU,2021-08-08 22:28:25,-15.7667,128.7333,60.78,55,0,8.05,clear sky
391,Cervo,ES,2021-08-08 22:33:12,43.6702,-7.4101,59.97,83,96,6.08,overcast clouds
392,Yerbogachen,RU,2021-08-08 22:33:12,61.2767,108.0108,56.03,54,2,2.08,clear sky
393,Mayo,US,2021-08-08 22:33:13,38.8876,-76.5119,90.0,68,1,3.0,clear sky
394,Ukiah,US,2021-08-08 22:33:13,39.1502,-123.2078,100.53,28,1,6.91,clear sky
395,Mecca,SA,2021-08-08 22:28:37,21.4267,39.8261,91.53,32,68,3.94,broken clouds
396,Kiunga,PG,2021-08-08 22:29:11,-6.1219,141.2906,73.15,99,100,1.86,overcast clouds
397,Mugur-Aksy,RU,2021-08-08 22:33:14,50.35,90.5,51.57,73,100,4.27,overcast clouds
398,Kenitra,MA,2021-08-08 22:33:15,34.261,-6.5802,70.56,72,1,4.68,clear sky
399,Jacqueville,CI,2021-08-08 22:33:15,5.2052,-4.4146,76.91,90,68,13.58,light rain
400,Katangli,RU,2021-08-08 22:33:16,51.7102,143.2326,56.39,78,100,7.05,overcast clouds
401,Codrington,AU,2021-08-08 22:33:16,-38.2667,141.9667,49.14,74,100,12.03,overcast clouds
402,Sosnogorsk,RU,2021-08-08 22:33:16,63.6023,53.8817,46.13,97,85,3.11,overcast clouds
403,Batagay-Alyta,RU,2021-08-08 22:33:17,67.8006,130.4114,70.2,27,15,1.61,few clouds
404,Noumea,NC,2021-08-08 22:29:17,-22.2763,166.4572,69.78,56,75,11.61,broken clouds
405,Sawakin,SD,2021-08-08 22:33:17,19.1059,37.3321,92.43,47,8,14.85,clear sky
406,Thunder Bay,CA,2021-08-08 22:33:18,48.4001,-89.3168,74.98,92,90,6.91,mist
407,Belyy Yar,RU,2021-08-08 22:33:18,53.6039,91.3903,55.29,100,40,0.0,mist
408,Yeppoon,AU,2021-08-08 22:33:19,-23.1333,150.7333,60.58,69,21,12.12,few clouds
409,Vila Velha,BR,2021-08-08 22:33:19,-20.3297,-40.2925,66.15,88,0,2.3,clear sky
410,Inhambane,MZ,2021-08-08 22:33:19,-23.865,35.3833,64.83,67,0,6.76,clear sky
411,Tshela,CD,2021-08-08 22:33:20,-4.9833,12.9333,66.85,86,18,1.99,few clouds
412,Dhidhdhoo,MV,2021-08-08 22:33:21,6.8833,73.1,82.33,72,98,15.7,overcast clouds
413,Jamsa,FI,2021-08-08 22:33:21,61.8642,25.19,61.52,81,100,2.13,overcast clouds
414,Batemans Bay,AU,2021-08-08 22:33:22,-35.7167,150.1833,48.9,62,56,2.59,broken clouds
415,Balakhta,RU,2021-08-08 22:33:22,55.38,91.6,56.53,91,1,2.19,clear sky
416,Poykovskiy,RU,2021-08-08 22:33:22,61.2333,73.3333,64.69,100,40,6.71,mist
417,Sabang,ID,2021-08-08 22:33:23,5.8933,95.3214,82.54,78,88,14.29,overcast clouds
418,Rudnogorsk,RU,2021-08-08 22:33:23,57.2639,103.7519,54.05,63,11,2.06,few clouds
419,Sagua La Grande,CU,2021-08-08 22:33:24,22.8067,-80.0756,90.59,64,9,11.63,clear sky
420,Wanning,CN,2021-08-08 22:28:29,18.8003,110.3967,81.46,86,100,8.63,overcast clouds
421,Jieshi,CN,2021-08-08 22:33:25,22.8134,115.8257,82.02,85,100,8.72,moderate rain
422,Vanimo,PG,2021-08-08 22:33:25,-2.6741,141.3028,76.69,89,99,6.15,light rain
423,Qarchi Gak,AF,2021-08-08 22:33:26,37.04,66.7889,78.89,15,0,13.76,clear sky
424,Belaya Gora,RU,2021-08-08 22:33:26,68.5333,146.4167,68.07,37,92,6.67,overcast clouds
425,Meulaboh,ID,2021-08-08 22:33:27,4.1363,96.1285,76.19,92,96,6.58,light rain
426,Cayenne,GF,2021-08-08 22:28:28,4.9333,-52.3333,82.44,83,0,5.01,clear sky
427,Linden,GY,2021-08-08 22:33:29,6.0,-58.3,82.54,94,96,1.68,overcast clouds
428,Tautira,PF,2021-08-08 22:33:29,-17.7333,-149.15,84.22,76,30,9.6,scattered clouds
429,Sangar,RU,2021-08-08 22:33:30,63.9242,127.4739,65.07,41,4,11.12,clear sky
430,Kindu,CD,2021-08-08 22:33:30,-2.95,25.95,71.02,76,51,2.75,light rain
431,Orlik,RU,2021-08-08 22:33:30,52.5178,99.825,51.17,79,84,1.34,broken clouds
432,Santa Cruz,BO,2021-08-08 22:33:31,-17.8,-63.1667,84.25,45,20,17.27,few clouds
433,Bosanska Krupa,BA,2021-08-08 22:33:32,44.8825,16.1514,72.48,61,74,3.6,broken clouds
434,Wangaratta,AU,2021-08-08 22:33:32,-36.3667,146.3333,47.16,93,90,3.44,overcast clouds
435,Adre,TD,2021-08-08 22:33:33,13.4667,22.2,68.97,91,59,1.95,broken clouds
436,Mezen,RU,2021-08-08 22:33:33,65.8522,44.24,52.2,73,100,6.44,overcast clouds
437,Dryden,CA,2021-08-08 22:33:33,49.7833,-92.7503,73.69,64,20,12.66,few clouds
438,Maragogi,BR,2021-08-08 22:33:34,-9.0122,-35.2225,73.27,86,75,8.05,broken clouds
439,Krutinka,RU,2021-08-08 22:33:34,56.0055,71.5113,56.91,98,76,7.7,broken clouds
440,Beachwood,US,2021-08-08 22:33:35,41.4645,-81.5087,84.69,68,1,3.0,clear sky
441,Pangnirtung,CA,2021-08-08 22:33:35,66.1451,-65.7125,44.6,69,100,5.35,light rain
442,Santa Maria,BR,2021-08-08 22:33:36,-29.6842,-53.8069,69.1,78,0,5.75,clear sky
443,Avera,US,2021-08-08 22:33:36,33.194,-82.5271,93.07,72,90,8.88,overcast clouds
444,Gori,GE,2021-08-08 22:33:37,41.9842,44.1158,66.81,84,26,3.74,scattered clouds
445,Zholymbet,KZ,2021-08-08 22:33:37,51.7433,71.7122,57.2,85,60,8.9,broken clouds
446,Kerema,PG,2021-08-08 22:33:38,-7.9631,145.7785,78.64,86,64,5.21,broken clouds
447,Harrison,US,2021-08-08 22:33:38,30.4091,-89.0436,89.67,68,1,11.5,clear sky
448,Boyolangu,ID,2021-08-08 22:33:39,-8.1181,111.8935,73.74,96,49,2.13,scattered clouds
449,Rute,ES,2021-08-08 22:33:39,37.3269,-4.3683,76.64,38,0,3.42,clear sky
450,Palu,ID,2021-08-08 22:33:40,-0.8917,119.8707,75.83,91,95,2.33,overcast clouds
451,Verkhnyaya Inta,RU,2021-08-08 22:33:40,65.9811,60.3094,47.14,96,100,4.5,overcast clouds
452,Bonthe,SL,2021-08-08 22:33:41,7.5264,-12.505,77.43,77,100,8.1,overcast clouds
453,Yasnyy,RU,2021-08-08 22:33:41,51.0333,59.8742,59.97,71,0,8.72,clear sky
454,Mareeba,AU,2021-08-08 22:28:51,-17.0,145.4333,66.92,91,29,3.2,scattered clouds
455,Benghazi,LY,2021-08-08 22:33:42,32.1167,20.0667,81.54,60,0,18.95,clear sky
456,Ourossogui,SN,2021-08-08 22:33:42,15.6064,-13.3211,75.2,94,40,6.91,scattered clouds
457,Oranjemund,NA,2021-08-08 22:33:42,-28.55,16.4333,58.55,67,99,5.59,overcast clouds
458,Smithers,CA,2021-08-08 22:33:43,54.7804,-127.1743,73.72,46,20,17.27,few clouds
459,Ayan,RU,2021-08-08 22:32:10,56.45,138.1667,57.24,53,5,6.11,clear sky
460,Brandon,US,2021-08-08 22:33:23,27.9378,-82.2859,92.32,70,90,8.05,light rain
461,Superior,US,2021-08-08 22:33:44,46.7208,-92.1041,71.33,93,90,4.61,mist
462,Auchi,NG,2021-08-08 22:33:45,7.0667,6.2667,70.81,97,100,4.23,overcast clouds
463,Bintulu,MY,2021-08-08 22:33:45,3.1667,113.0333,75.61,94,40,3.44,scattered clouds
464,Awbari,LY,2021-08-08 22:33:45,26.5921,12.7805,91.87,11,0,11.25,clear sky
465,Christchurch,NZ,2021-08-08 22:33:46,-43.5333,172.6333,40.32,83,75,1.99,light rain
466,Fully,CH,2021-08-08 22:33:46,46.1385,7.1147,63.27,81,0,2.3,clear sky
467,Durango,MX,2021-08-08 22:30:23,24.8333,-104.8333,80.91,29,22,12.59,few clouds
468,Bourail,NC,2021-08-08 22:33:47,-21.5667,165.4833,69.48,52,52,11.97,broken clouds
469,Lavrentiya,RU,2021-08-08 22:33:47,65.5833,-171.0,48.36,68,44,15.19,scattered clouds
470,Tvoroyri,FO,2021-08-08 22:33:48,61.5556,-6.8111,51.19,93,40,4.7,scattered clouds
471,Shimoda,JP,2021-08-08 22:33:48,34.6667,138.95,82.51,93,66,20.49,broken clouds
472,Ellisras,ZA,2021-08-08 22:33:49,-23.6649,27.7443,57.02,53,0,2.66,clear sky
473,Aloleng,PH,2021-08-08 22:33:49,16.1307,119.7824,81.84,84,100,10.94,overcast clouds
474,Pavlodar,KZ,2021-08-08 22:33:50,52.3,76.95,60.6,94,90,6.71,moderate rain
475,Aguimes,ES,2021-08-08 22:33:50,27.9054,-15.4461,70.43,64,20,18.41,few clouds
476,Mount Vernon,US,2021-08-08 22:33:51,40.9126,-73.8371,80.15,79,90,20.71,light rain
477,Imbituba,BR,2021-08-08 22:33:51,-28.24,-48.6703,66.09,90,0,11.54,clear sky
478,Garibaldi,BR,2021-08-08 22:30:13,-29.2561,-51.5336,67.86,75,0,2.57,clear sky
479,Havre-Saint-Pierre,CA,2021-08-08 22:32:20,50.2334,-63.5986,62.96,55,1,17.27,clear sky
480,El Prat De Llobregat,ES,2021-08-08 22:30:07,41.3278,2.0947,73.31,71,0,6.91,clear sky
481,Kamaishi,JP,2021-08-08 22:33:52,39.2667,141.8833,76.8,97,100,7.4,overcast clouds
482,San Patricio,US,2021-08-08 22:33:52,28.017,-97.5169,93.92,58,35,18.9,scattered clouds
483,Salta,AR,2021-08-08 22:29:14,-24.7859,-65.4117,72.19,38,0,7.0,clear sky
484,Gushikawa,JP,2021-08-08 22:33:53,26.3544,127.8686,80.19,97,75,11.5,broken clouds
485,Prince Rupert,CA,2021-08-08 22:33:53,54.3161,-130.3201,60.89,85,75,5.75,broken clouds
486,Kavaratti,IN,2021-08-08 22:33:54,10.5669,72.642,78.98,85,100,18.84,overcast clouds
487,Maraa,BR,2021-08-08 22:33:54,-1.8333,-65.3667,75.38,90,97,1.99,overcast clouds
488,Phalombe,MW,2021-08-08 22:33:55,-15.8064,35.6507,57.92,72,0,3.04,clear sky
489,Rio Gallegos,AR,2021-08-08 22:33:56,-51.6226,-69.2181,44.65,53,0,14.97,clear sky
490,Timizart,DZ,2021-08-08 22:33:56,36.8,4.2667,76.53,61,65,5.93,broken clouds
491,Tommot,RU,2021-08-08 22:33:57,58.9564,126.2925,65.62,72,23,2.84,few clouds
492,Kalmunai,LK,2021-08-08 22:33:57,7.4167,81.8167,78.28,84,97,1.74,overcast clouds
493,Asfi,MA,2021-08-08 22:33:57,32.2994,-9.2372,67.46,79,0,14.27,clear sky
494,Saint Anthony,US,2021-08-08 22:33:58,45.0205,-93.218,79.48,74,90,5.75,overcast clouds
495,Wanxian,CN,2021-08-08 22:33:58,30.8039,108.3897,77.23,99,100,3.09,overcast clouds
496,Abengourou,CI,2021-08-08 22:33:59,6.7297,-3.4964,71.94,93,95,5.14,overcast clouds
497,Harper,LR,2021-08-08 22:33:59,4.375,-7.7169,75.94,86,43,10.65,light rain
498,Tagusao,PH,2021-08-08 22:34:00,9.1924,117.8141,80.89,81,100,4.14,overcast clouds
499,Emba,KZ,2021-08-08 22:34:00,48.8264,58.1442,69.04,35,1,9.48,clear sky
500,Shymkent,KZ,2021-08-08 22:33:23,42.3,69.6,75.79,27,0,4.47,clear sky
501,Gaoua,BF,2021-08-08 22:34:01,10.2992,-3.2508,74.43,91,95,4.43,overcast clouds
502,Ucluelet,CA,2021-08-08 22:31:52,48.9329,-125.5528,80.04,73,14,5.95,few clouds
503,Ambilobe,MG,2021-08-08 22:34:01,-13.2,49.05,69.82,85,99,1.34,overcast clouds
504,Kasongo-Lunda,CD,2021-08-08 22:34:02,-6.4667,16.8167,71.1,52,0,2.46,clear sky
505,Kendari,ID,2021-08-08 22:33:00,-3.945,122.4989,73.94,92,32,2.15,scattered clouds
506,Ambulu,ID,2021-08-08 22:34:03,-8.345,113.6058,73.81,90,28,4.38,scattered clouds
507,Marabba,SD,2021-08-08 22:34:03,12.35,32.1833,73.99,84,100,6.33,overcast clouds
508,Itarema,BR,2021-08-08 22:34:04,-2.9248,-39.9167,79.16,78,12,18.7,few clouds
509,Monteagudo,BO,2021-08-08 22:34:04,-19.8167,-63.9833,80.38,46,8,0.58,clear sky
510,Komsomolskiy,UZ,2021-08-08 22:34:05,40.4272,71.7189,77.72,31,0,6.91,clear sky
511,Polyarnyy,RU,2021-08-08 22:34:05,69.1989,33.4478,45.07,73,4,7.76,clear sky
512,Rokytne,UA,2021-08-08 22:34:06,51.2796,27.214,63.3,89,52,2.86,broken clouds
513,Los Llanos De Aridane,ES,2021-08-08 22:32:09,28.6585,-17.9182,67.75,97,75,5.75,broken clouds
514,Comarapa,BO,2021-08-08 22:34:06,-17.9,-64.4833,53.13,77,11,4.52,few clouds
515,Chillicothe,US,2021-08-08 22:33:15,39.3331,-82.9824,89.96,55,1,4.61,clear sky
516,Coquimbo,CL,2021-08-08 22:34:07,-29.9533,-71.3436,56.93,76,0,9.22,clear sky
517,Ghanzi,BW,2021-08-08 22:34:07,-21.5667,21.7833,56.71,26,0,5.21,clear sky
518,Hede,CN,2021-08-08 22:34:08,33.7681,120.2517,76.53,85,100,1.7,light rain
519,Kapuskasing,CA,2021-08-08 22:34:08,49.4169,-82.4331,71.6,73,90,8.05,haze
520,Prado,BR,2021-08-08 22:34:09,-17.3411,-39.2208,69.58,78,8,7.54,clear sky
521,Guia De Isora,ES,2021-08-08 22:34:09,28.2115,-16.7795,67.73,72,28,1.01,scattered clouds
522,Laguna,US,2021-08-08 22:34:10,38.421,-121.4238,104.22,31,1,4.0,clear sky
523,Athabasca,CA,2021-08-08 22:30:12,54.7169,-113.2854,66.02,49,86,9.22,overcast clouds
524,Rotnes,NO,2021-08-08 22:34:10,60.0571,10.8614,58.55,92,70,0.49,broken clouds
525,Mehriz,IR,2021-08-08 22:34:11,31.5917,54.4318,82.9,16,7,1.59,clear sky
526,Mataya,PH,2021-08-08 22:34:11,7.4711,124.3719,72.55,87,100,3.36,overcast clouds
527,Acapulco,MX,2021-08-08 22:32:41,16.8634,-99.8901,84.02,74,75,9.22,broken clouds
528,Zhuhai,CN,2021-08-08 22:34:12,22.2769,113.5678,85.78,89,40,11.5,light rain
529,Maneadero,MX,2021-08-08 22:34:12,31.7167,-116.5667,81.19,56,12,7.47,few clouds
530,Koygorodok,RU,2021-08-08 22:34:13,60.445,50.9968,54.55,70,99,4.21,light rain
531,Huntsville,US,2021-08-08 22:31:51,34.7304,-86.5861,89.42,64,1,1.99,clear sky
532,Kloulklubed,PW,2021-08-08 22:34:13,7.0419,134.2556,77.5,72,100,11.27,heavy intensity rain
533,Zhigansk,RU,2021-08-08 22:34:14,66.7697,123.3711,66.27,33,77,13.33,broken clouds
534,Dongsheng,CN,2021-08-08 22:34:14,39.8161,109.9776,68.11,51,56,6.55,broken clouds
535,Tiksi,RU,2021-08-08 22:34:15,71.6872,128.8694,50.41,73,55,4.34,broken clouds
536,Port Augusta,AU,2021-08-08 22:34:15,-32.5,137.7667,44.74,60,0,7.94,clear sky
537,Plettenberg Bay,ZA,2021-08-08 22:34:16,-34.0527,23.3716,56.53,63,100,7.76,overcast clouds
538,Ulaangom,MN,2021-08-08 22:34:16,49.9811,92.0667,58.8,71,97,1.25,overcast clouds
539,Nouadhibou,MR,2021-08-08 22:34:17,20.931,-17.0347,69.78,88,3,16.11,clear sky
540,Khuzhir,RU,2021-08-08 22:34:17,53.1939,107.3397,55.36,71,29,8.72,scattered clouds
541,Ouesso,CG,2021-08-08 22:34:18,1.6136,16.0517,69.75,94,22,2.82,few clouds
542,Podor,MR,2021-08-08 22:34:18,16.6527,-14.9587,85.95,66,0,4.61,clear sky
543,Bardiyah,LY,2021-08-08 22:34:19,31.7561,25.0865,78.6,64,0,4.23,clear sky
544,Nelson Bay,AU,2021-08-08 22:34:19,-32.7167,152.15,57.96,89,100,10.96,overcast clouds
545,Olinda,BR,2021-08-08 22:34:20,-8.0089,-34.8553,76.73,78,75,10.36,broken clouds
546,Iquique,CL,2021-08-08 22:32:29,-20.2208,-70.1431,60.84,78,14,7.72,few clouds
547,Akhmim,EG,2021-08-08 22:34:20,26.5622,31.745,88.0,19,0,7.31,clear sky
548,Mandalgovi,MN,2021-08-08 22:34:21,45.7625,106.2708,52.2,70,5,14.79,clear sky
549,Malpe,IN,2021-08-08 22:34:21,13.35,74.7167,76.3,89,56,1.16,broken clouds
550,Boksitogorsk,RU,2021-08-08 22:34:22,59.474,33.8485,58.73,96,100,4.03,overcast clouds
551,Prachuap Khiri Khan,TH,2021-08-08 22:34:22,12.2167,99.75,75.65,83,81,4.56,broken clouds
552,Moa,CU,2021-08-08 22:34:23,20.6569,-74.9403,82.45,76,9,8.75,clear sky
553,Salobrena,ES,2021-08-08 22:34:23,36.7428,-3.5872,83.1,85,3,2.95,clear sky
554,Puerto Escondido,MX,2021-08-08 22:34:24,15.85,-97.0667,83.23,65,40,4.61,scattered clouds
555,Senneterre,CA,2021-08-08 22:34:24,48.3835,-77.2328,71.82,76,100,3.31,overcast clouds
556,Pierre,US,2021-08-08 22:31:14,44.3683,-100.351,97.72,20,1,0.0,clear sky
557,Morant Bay,JM,2021-08-08 22:34:25,17.8815,-76.4093,85.66,75,7,9.55,clear sky
558,Hambantota,LK,2021-08-08 22:34:25,6.1241,81.1185,78.55,81,94,17.05,overcast clouds
559,Fare,PF,2021-08-08 22:34:26,-16.7,-151.0167,79.39,74,12,12.21,few clouds
560,Nizhniy Kuranakh,RU,2021-08-08 22:34:26,58.8353,125.4869,65.39,67,9,3.51,clear sky
561,Belmonte,BR,2021-08-08 22:34:27,-15.8631,-38.8828,73.9,83,44,10.13,scattered clouds
562,El Sauzal,MX,2021-08-08 22:34:28,31.9,-116.6833,73.2,63,35,7.02,scattered clouds
563,Casisang,PH,2021-08-08 22:34:30,8.1381,125.125,68.38,97,100,1.05,overcast clouds
564,Butembo,CD,2021-08-08 22:34:37,0.15,29.2833,56.34,95,21,2.08,few clouds
565,Colares,PT,2021-08-08 22:34:37,38.7992,-9.4469,65.44,73,0,18.77,clear sky
566,Moron,AR,2021-08-08 22:34:37,-34.6534,-58.6198,48.0,98,75,7.0,thunderstorm with rain
567,Miranda,CO,2021-08-08 22:34:38,3.2499,-76.2281,80.73,87,97,1.54,overcast clouds
568,Hulan,CN,2021-08-08 22:34:39,45.9833,126.6,64.51,79,3,15.84,clear sky
569,Bay Roberts,CA,2021-08-08 22:34:39,47.5999,-53.2648,57.51,90,99,8.01,light rain
570,Todos Santos,MX,2021-08-08 22:34:39,23.45,-110.2167,93.11,76,36,7.52,scattered clouds
571,Santa Isabel,BR,2021-08-08 22:34:40,-23.3156,-46.2214,68.76,78,4,0.69,clear sky
572,Barcelos,PT,2021-08-08 22:34:40,41.5388,-8.6151,65.28,87,100,5.01,overcast clouds
573,Launceston,AU,2021-08-08 22:31:32,-41.45,147.1667,47.16,100,90,9.22,fog
574,Korla,CN,2021-08-08 22:34:41,41.7597,86.1469,76.28,39,99,10.22,overcast clouds
575,Saint-Francois,FR,2021-08-08 22:34:41,46.4154,3.9054,58.17,91,0,2.3,clear sky
576,Sambava,MG,2021-08-08 22:34:42,-14.2667,50.1667,67.53,86,46,6.8,scattered clouds
577,Ferkessedougou,CI,2021-08-08 22:34:42,9.6,-5.2,72.0,94,85,5.39,light rain
578,Yumen,CN,2021-08-08 22:34:43,40.2833,97.2,68.61,22,0,7.36,clear sky
579,Dawson Creek,CA,2021-08-08 22:34:43,55.7666,-120.2362,74.84,38,1,10.36,clear sky
580,Sheridan,US,2021-08-08 22:34:44,44.8333,-106.9173,97.7,13,1,11.5,clear sky
581,Myre,NO,2021-08-08 22:34:44,69.1036,15.9492,58.95,80,97,14.07,overcast clouds
582,Kushiro,JP,2021-08-08 22:34:44,42.975,144.3747,58.15,100,75,13.8,broken clouds
583,Beeville,US,2021-08-08 22:33:48,28.4008,-97.7483,93.38,70,40,17.27,scattered clouds
584,Coihaique,CL,2021-08-08 22:34:45,-45.5752,-72.0662,40.95,70,20,4.61,few clouds
585,Ravar,IR,2021-08-08 22:34:46,31.2656,56.8055,80.24,15,0,1.77,clear sky
586,Bukama,CD,2021-08-08 22:34:46,-9.2,25.85,71.65,30,2,1.54,clear sky
587,Morondava,MG,2021-08-08 22:34:46,-20.2833,44.2833,66.97,59,0,10.6,clear sky
588,Angoche,MZ,2021-08-08 22:34:47,-16.2325,39.9086,69.69,74,0,7.67,clear sky
589,Umm Kaddadah,SD,2021-08-08 22:34:47,13.6017,26.6876,81.91,54,90,11.86,overcast clouds
590,Saraland,US,2021-08-08 22:34:48,30.8207,-88.0706,91.42,73,68,6.13,broken clouds
591,Mwene-Ditu,CD,2021-08-08 22:34:48,-7.0,23.45,73.26,27,100,2.48,overcast clouds
592,Yatou,CN,2021-08-08 22:34:49,37.15,122.3833,76.01,76,62,4.65,broken clouds
593,Denpasar,ID,2021-08-08 22:33:02,-8.65,115.2167,78.46,94,40,6.91,scattered clouds
594,Trujillo,PE,2021-08-08 22:31:01,-8.116,-79.03,66.16,72,0,11.5,clear sky
595,San Rafael,AR,2021-08-08 22:34:50,-34.6177,-68.3301,39.0,94,100,13.15,overcast clouds
596,Bud,US,2021-08-08 22:34:50,39.447,-86.1758,87.42,61,85,4.68,overcast clouds
597,Sigli,ID,2021-08-08 22:34:51,5.3848,95.9609,77.41,83,84,4.65,moderate rain
598,Saint-Augustin,CA,2021-08-08 22:34:51,51.226,-58.6502,58.84,69,3,7.58,clear sky
599,North Platte,US,2021-08-08 22:30:27,41.1239,-100.7654,98.02,23,1,0.0,clear sky
600,Chara,RU,2021-08-08 22:32:10,56.9064,118.2631,61.54,79,100,1.77,light rain
601,Morelia,MX,2021-08-08 22:34:52,19.7008,-101.1844,67.14,76,59,3.62,broken clouds
602,Havelock,US,2021-08-08 22:34:52,34.8791,-76.9013,84.15,79,75,5.99,broken clouds
603,Colesberg,ZA,2021-08-08 22:34:53,-30.72,25.0972,49.86,34,20,9.31,few clouds
604,Loukhi,RU,2021-08-08 22:34:53,66.0764,33.0381,51.64,86,56,4.41,broken clouds
605,Albury,AU,2021-08-08 22:30:04,-36.0833,146.9167,46.02,94,90,0.0,overcast clouds
606,Tura,IN,2021-08-08 22:34:54,25.5198,90.2201,74.89,98,97,5.46,overcast clouds
607,Gizo,SB,2021-08-08 22:34:54,-8.103,156.8419,82.22,70,41,4.52,scattered clouds
608,Srandakan,ID,2021-08-08 22:34:55,-7.9386,110.2506,74.8,91,10,4.0,clear sky
609,Sao Miguel Do Araguaia,BR,2021-08-08 22:34:55,-13.275,-50.1628,78.24,32,4,3.74,clear sky
610,Mastic Beach,US,2021-08-08 22:34:56,40.7668,-72.8521,75.24,90,90,5.75,moderate rain
611,Sedhiou,SN,2021-08-08 22:34:56,12.7081,-15.5569,75.24,94,100,4.63,overcast clouds
612,Magistralnyy,RU,2021-08-08 22:34:57,56.1725,107.4458,56.23,58,59,2.35,broken clouds
613,Razole,IN,2021-08-08 22:34:57,16.4833,81.8333,81.72,83,94,3.29,overcast clouds
614,Sioux Lookout,CA,2021-08-08 22:34:58,50.1001,-91.917,73.78,68,75,5.75,broken clouds
615,Eureka,US,2021-08-08 22:30:29,40.8021,-124.1637,83.68,71,37,7.0,scattered clouds
616,Ocos,GT,2021-08-08 22:34:58,14.5094,-92.1933,87.98,75,81,4.61,broken clouds
617,Oktyabrskiy,RU,2021-08-08 22:34:59,54.4815,53.471,55.89,61,34,1.86,scattered clouds
618,Hargeysa,SO,2021-08-08 22:34:59,9.56,44.065,73.45,57,59,18.32,broken clouds
619,Yaan,NG,2021-08-08 22:34:59,7.3833,8.5667,71.82,92,94,8.97,overcast clouds
620,Caravelas,BR,2021-08-08 22:35:01,-17.7125,-39.2481,68.7,82,1,6.78,clear sky
621,Viedma,AR,2021-08-08 22:35:01,-40.8135,-62.9967,43.63,63,87,6.35,overcast clouds
622,Trairi,BR,2021-08-08 22:33:12,-3.2778,-39.2689,79.11,77,8,14.63,clear sky
623,Corlatel,RO,2021-08-08 22:35:02,44.3986,22.9331,72.14,33,0,3.31,light rain
624,Fortuna,US,2021-08-08 22:35:03,40.5982,-124.1573,88.2,67,75,3.0,broken clouds
625,Tukrah,LY,2021-08-08 22:35:04,32.5341,20.5791,78.96,67,0,15.7,clear sky
626,La Ronge,CA,2021-08-08 22:35:04,55.1001,-105.2842,66.42,59,75,11.5,broken clouds
627,Bealanana,MG,2021-08-08 22:35:05,-14.55,48.7333,56.17,94,82,1.68,broken clouds
628,Alamor,EC,2021-08-08 22:35:05,-4.0181,-80.0197,63.28,67,59,3.38,broken clouds
629,Rocha,UY,2021-08-08 22:35:05,-34.4833,-54.3333,53.38,89,100,15.88,overcast clouds
630,Port Said,EG,2021-08-08 22:35:06,31.2565,32.2841,82.38,78,0,9.22,clear sky
631,Axim,GH,2021-08-08 22:35:06,4.8699,-2.2405,76.1,88,74,10.92,light rain
632,Changji,CN,2021-08-08 22:35:07,44.0167,87.3167,77.79,33,0,6.71,clear sky
633,Goundam,ML,2021-08-08 22:35:07,16.4145,-3.6708,86.52,51,87,9.8,overcast clouds
634,San Vicente,AR,2021-08-08 22:35:08,-26.6167,-54.1333,63.81,56,13,2.48,few clouds
635,Luanda,AO,2021-08-08 22:33:00,-8.8368,13.2343,71.6,88,0,3.44,clear sky
636,Balykshi,KZ,2021-08-08 22:35:08,47.0667,51.8667,80.6,34,0,17.9,clear sky
637,Nabire,ID,2021-08-08 22:35:09,-3.3667,135.4833,76.82,89,98,2.8,overcast clouds
638,Sibolga,ID,2021-08-08 22:35:09,1.7427,98.7792,75.85,89,77,4.09,broken clouds
639,Tete,MZ,2021-08-08 22:35:09,-16.1564,33.5867,64.49,55,0,3.44,clear sky
640,Fayaoue,NC,2021-08-08 22:35:10,-20.65,166.5333,70.09,59,40,22.79,scattered clouds
641,Porto-Vecchio,FR,2021-08-08 22:35:10,41.591,9.2795,76.53,82,0,2.3,clear sky
642,Bafra,TR,2021-08-08 22:35:11,41.5678,35.9069,69.58,80,94,14.47,light rain
643,Spanish Town,JM,2021-08-08 22:35:11,17.9911,-76.9574,85.68,79,40,14.97,scattered clouds
644,Pimentel,PE,2021-08-08 22:35:12,-6.8367,-79.9342,68.29,77,0,4.0,clear sky
645,Healesville,AU,2021-08-08 22:35:12,-37.65,145.5167,51.98,76,100,2.42,overcast clouds
646,Kawhia,NZ,2021-08-08 22:35:13,-38.0651,174.8183,49.37,55,97,15.57,overcast clouds
647,Praya,CV,2021-08-08 22:35:13,14.9215,-23.5087,79.34,89,20,4.61,few clouds
648,Illapel,CL,2021-08-08 22:35:14,-31.6308,-71.1653,49.62,83,77,4.54,broken clouds
649,Naryan-Mar,RU,2021-08-08 22:33:07,67.6713,53.087,44.17,93,3,3.11,clear sky
650,Northam,GB,2021-08-08 22:35:14,51.0333,-4.2167,60.39,96,94,11.16,light rain
651,Neosho,US,2021-08-08 22:30:59,36.869,-94.368,91.26,65,52,5.99,broken clouds
652,Alta Floresta,BR,2021-08-08 22:35:15,-9.8756,-56.0861,83.5,31,29,3.09,scattered clouds
653,Pacific Grove,US,2021-08-08 22:35:15,36.6177,-121.9166,90.01,76,1,8.99,clear sky
654,Luau,AO,2021-08-08 22:35:16,-10.7073,22.2247,64.71,22,14,3.98,few clouds
655,Hirara,JP,2021-08-08 22:35:16,24.8,125.2833,78.66,100,75,6.91,mist
656,Sterling,US,2021-08-08 22:35:17,39.0062,-77.4286,89.76,53,40,1.01,scattered clouds
657,Labuhan,ID,2021-08-08 22:35:17,-6.8844,112.2051,77.09,88,41,7.78,scattered clouds
658,Haputale,LK,2021-08-08 22:35:17,6.7681,80.9595,61.88,84,89,6.73,overcast clouds
659,Antofagasta,CL,2021-08-08 22:32:29,-23.65,-70.4,58.28,75,19,9.15,few clouds
660,Hay River,CA,2021-08-08 22:35:18,60.8156,-115.7999,51.76,76,75,4.61,broken clouds
661,Tabou,CI,2021-08-08 22:35:19,4.423,-7.3528,75.65,87,46,10.04,light rain
662,Bolobo,CD,2021-08-08 22:35:19,-2.1667,16.2333,78.71,49,97,1.66,overcast clouds
663,Athni,IN,2021-08-08 22:35:20,16.7333,75.0667,72.52,89,73,11.14,broken clouds
664,Waitati,NZ,2021-08-08 22:35:20,-45.75,170.5667,41.81,72,70,9.95,broken clouds
665,San Quintin,MX,2021-08-08 22:35:21,30.4833,-115.95,73.26,65,13,9.84,few clouds
666,Ban Nahin,LA,2021-08-08 22:35:21,18.2418,104.2122,77.07,97,100,1.59,overcast clouds
667,Aykhal,RU,2021-08-08 22:35:22,66.0,111.5,56.66,69,10,2.64,clear sky
668,Kieta,PG,2021-08-08 22:35:22,-6.2167,155.6333,82.4,69,36,2.42,scattered clouds
